[
  {
    "stationid": 1,
    "stationcode": "NYC-6839",
    "programid": 1,
    "address": "346 Broadway",
    "name": "Broadway & Leonard St",
    "latitude": 40.717548,
    "longitude": -74.005305,
    "capacity": 30,
    "postalcode": "10013",
    "contactphone": null,
    "shortname": "Broadway/Leonard"
  },
  {
    "stationid": 2,
    "stationcode": "NYC-6140",
    "programid": 1,
    "address": "1 Central Park S",
    "name": "Central Park South & 6th Ave",
    "latitude": 40.765909,
    "longitude": -73.976342,
    "capacity": 40,
    "postalcode": "10019",
    "contactphone": null,
    "shortname": "CPS/6th"
  },
  {
    "stationid": 3,
    "stationcode": "NYC-5972",
    "programid": 1,
    "address": "11 Wall St",
    "name": "Wall St & William St",
    "latitude": 40.706858,
    "longitude": -74.009625,
    "capacity": 24,
    "postalcode": "10005",
    "contactphone": null,
    "shortname": "Wall/William"
  },
  {
    "stationid": 4,
    "stationcode": "NYC-7612",
    "programid": 1,
    "address": "350 W 42nd St",
    "name": "42nd St & Dyer Ave",
    "latitude": 40.758985,
    "longitude": -73.993800,
    "capacity": 36,
    "postalcode": "10036",
    "contactphone": null,
    "shortname": "42nd/Dyer"
  },
  {
    "stationid": 5,
    "stationcode": "CHI-15541",
    "programid": 2,
    "address": "333 N Michigan Ave",
    "name": "Michigan Ave & Lake St",
    "latitude": 41.886024,
    "longitude": -87.624117,
    "capacity": 28,
    "postalcode": "60601",
    "contactphone": null,
    "shortname": "Michigan/Lake"
  },
  {
    "stationid": 6,
    "stationcode": "CHI-15544",
    "programid": 2,
    "address": "1000 W Diversey Pkwy",
    "name": "Diversey Pkwy & Sheffield Ave",
    "latitude": 41.932733,
    "longitude": -87.653818,
    "capacity": 20,
    "postalcode": "60614",
    "contactphone": null,
    "shortname": "Diversey/Sheffield"
  },
  {
    "stationid": 7,
    "stationcode": "CHI-15549",
    "programid": 2,
    "address": "200 E Randolph St",
    "name": "Millennium Park",
    "latitude": 41.881032,
    "longitude": -87.624084,
    "capacity": 50,
    "postalcode": "60601",
    "contactphone": null,
    "shortname": "Millennium"
  },
  {
    "stationid": 8,
    "stationcode": "MTL-7060",
    "programid": 3,
    "address": "350 Rue Sainte-Catherine O",
    "name": "Ste-Catherine / McGill College",
    "latitude": 45.503204,
    "longitude": -73.571640,
    "capacity": 35,
    "postalcode": "H3B 1A3",
    "contactphone": null,
    "shortname": "SteCath/McGill"
  },
  {
    "stationid": 9,
    "stationcode": "MTL-7039",
    "programid": 3,
    "address": "1250 Rue Peel",
    "name": "Peel / Ste-Catherine",
    "latitude": 45.501689,
    "longitude": -73.573022,
    "capacity": 25,
    "postalcode": "H3B 4W8",
    "contactphone": null,
    "shortname": "Peel/SteCath"
  },
  {
    "stationid": 10,
    "stationcode": "OSL-2315",
    "programid": 4,
    "address": "Aker Brygge 1",
    "name": "Aker Brygge",
    "latitude": 59.910764,
    "longitude": 10.727177,
    "capacity": 30,
    "postalcode": "0250",
    "contactphone": null,
    "shortname": "AkerBrygge"
  },
  {
    "stationid": 11,
    "stationcode": "OSL-2350",
    "programid": 4,
    "address": "Karl Johans gate 1",
    "name": "Jernbanetorget",
    "latitude": 59.911096,
    "longitude": 10.750923,
    "capacity": 24,
    "postalcode": "0154",
    "contactphone": null,
    "shortname": "Jernbanetorget"
  }
]